{
  "name": "Asian",
  "slug": "asian",
  "source_url": "https://maps.app.goo.gl/cXYHCLZWxsSfwm3MA",
  "list_id": "7Rn6uSmuW6h9QbXLywb0tg",
  "updated_at": "2026-05-02T04:26:28+00:00",
  "places": [
    {
      "place_id": "fid:-8520142556900350309:3265664546925850034",
      "name": "Fuskahouse_NYC (Bengali Street Food)",
      "address": "",
      "borough": "",
      "lat": 40.749109399999995,
      "lng": -73.8923982,
      "maps_url": "https://maps.google.com/?cid=3265664546925850034",
      "rating": null,
      "reviews": null,
      "cuisine": "",
      "price_level": "",
      "photo_url": null
    },
    {
      "place_id": "fid:-8520143060598370697:-4393840145126201022",
      "name": "Nepali Bhanchha Ghar",
      "address": "",
      "borough": "",
      "lat": 40.7471014,
      "lng": -73.8909012,
      "maps_url": "https://maps.google.com/?cid=14052903928583350594",
      "rating": null,
      "reviews": null,
      "cuisine": "",
      "price_level": "",
      "photo_url": null
    },
    {
      "place_id": "fid:-8520143062064309265:3454301177313893060",
      "name": "Lhasa Fast Food",
      "address": "",
      "borough": "",
      "lat": 40.7492954,
      "lng": -73.8897307,
      "maps_url": "https://maps.google.com/?cid=3454301177313893060",
      "rating": null,
      "reviews": null,
      "cuisine": "",
      "price_level": "",
      "photo_url": null
    },
    {
      "place_id": "fid:-8520142519980425795:3171883035556323585",
      "name": "Phayul2",
      "address": "",
      "borough": "",
      "lat": 40.7474504,
      "lng": -73.8914309,
      "maps_url": "https://maps.google.com/?cid=3171883035556323585",
      "rating": null,
      "reviews": null,
      "cuisine": "",
      "price_level": "",
      "photo_url": null
    },
    {
      "place_id": "/g/11kqkyjmzh",
      "name": "HYDERABADI ZAIQA",
      "address": "785 9th Ave, New York, NY 10019",
      "borough": "Manhattan",
      "lat": 40.7650888,
      "lng": -73.9881719,
      "maps_url": "https://maps.google.com/?cid=8912636277894665125",
      "rating": null,
      "reviews": null,
      "cuisine": "",
      "price_level": "",
      "photo_url": null
    },
    {
      "place_id": "/g/11yz21qpwb",
      "name": "Thai Pavilion NYC",
      "address": "24 W 56th St, New York, NY 10019",
      "borough": "Manhattan",
      "lat": 40.7627229,
      "lng": -73.9759474,
      "maps_url": "https://maps.google.com/?cid=5812790485019224576",
      "rating": null,
      "reviews": null,
      "cuisine": "",
      "price_level": "",
      "photo_url": null
    },
    {
      "place_id": "/g/11slf3kgkw",
      "name": "Dumpling N’ Dips",
      "address": "5 St Marks Pl, New York, NY 10003",
      "borough": "Manhattan",
      "lat": 40.7294335,
      "lng": -73.989335,
      "maps_url": "https://maps.google.com/?cid=7847221892672440065",
      "rating": null,
      "reviews": null,
      "cuisine": "",
      "price_level": "",
      "photo_url": null
    },
    {
      "place_id": "/g/11xvhk4qj6",
      "name": "Joe's Steam Rice Roll 石磨肠粉王",
      "address": "774 58th St, Brooklyn, NY 11220",
      "borough": "Brooklyn",
      "lat": 40.6367449,
      "lng": -74.0089776,
      "maps_url": "https://maps.google.com/?cid=12461854029409809990",
      "rating": null,
      "reviews": null,
      "cuisine": "",
      "price_level": "",
      "photo_url": null
    },
    {
      "place_id": "/g/1w9y1_q1",
      "name": "New Belacan",
      "address": "5918 8th Ave, Brooklyn, NY 11220",
      "borough": "Brooklyn",
      "lat": 40.6358312,
      "lng": -74.0094264,
      "maps_url": "https://maps.google.com/?cid=17747785066780265843",
      "rating": null,
      "reviews": null,
      "cuisine": "",
      "price_level": "",
      "photo_url": null
    },
    {
      "place_id": "/g/11dx938pvt",
      "name": "Roast 28",
      "address": "5124 8th Ave, Brooklyn, NY 11220",
      "borough": "Brooklyn",
      "lat": 40.6401679,
      "lng": -74.0049102,
      "maps_url": "https://maps.google.com/?cid=5611674364260674371",
      "rating": null,
      "reviews": null,
      "cuisine": "",
      "price_level": "",
      "photo_url": null
    },
    {
      "place_id": "/g/1yfdpfmyf",
      "name": "Wong Wong Noodle Soup",
      "address": "5410 8th Ave, Brooklyn, NY 11220",
      "borough": "Brooklyn",
      "lat": 40.6387061,
      "lng": -74.0064408,
      "maps_url": "https://maps.google.com/?cid=5686641311456691880",
      "rating": null,
      "reviews": null,
      "cuisine": "",
      "price_level": "",
      "photo_url": null
    },
    {
      "place_id": "/g/11x5v7wc78",
      "name": "Uncle Ray's Chicken Rice",
      "address": "790 9th Ave, New York, NY 10019",
      "borough": "Manhattan",
      "lat": 40.7649093,
      "lng": -73.9875422,
      "maps_url": "https://maps.google.com/?cid=12970434420627414014",
      "rating": null,
      "reviews": null,
      "cuisine": "",
      "price_level": "",
      "photo_url": null
    },
    {
      "place_id": "/g/11wtbs99rr",
      "name": "Fomo Momo",
      "address": "85 1st Ave, New York, NY 10003",
      "borough": "Manhattan",
      "lat": 40.726035499999995,
      "lng": -73.9867902,
      "maps_url": "https://maps.google.com/?cid=6125631599390275211",
      "rating": null,
      "reviews": null,
      "cuisine": "",
      "price_level": "",
      "photo_url": null
    },
    {
      "place_id": "/g/11m62jqq6k",
      "name": "DubuHaus",
      "address": "6 E 32nd St, New York, NY 10016",
      "borough": "Manhattan",
      "lat": 40.7466347,
      "lng": -73.9849148,
      "maps_url": "https://maps.google.com/?cid=16684823690107060980",
      "rating": null,
      "reviews": null,
      "cuisine": "",
      "price_level": "",
      "photo_url": null
    },
    {
      "place_id": "/g/11tdv3_mlj",
      "name": "Pranakhon",
      "address": "88 University Pl, New York, NY 10003",
      "borough": "Manhattan",
      "lat": 40.733751,
      "lng": -73.9932623,
      "maps_url": "https://maps.google.com/?cid=753707069040689621",
      "rating": null,
      "reviews": null,
      "cuisine": "",
      "price_level": "",
      "photo_url": null
    },
    {
      "place_id": "/g/11ypx4pkv1",
      "name": "Growl Growl - New Style Hot Pot Bowls 新派麻辣烫",
      "address": "11 W 36th St., New York, NY 10018",
      "borough": "Manhattan",
      "lat": 40.7502729,
      "lng": -73.98436869999999,
      "maps_url": "https://maps.google.com/?cid=14445920722413516074",
      "rating": null,
      "reviews": null,
      "cuisine": "",
      "price_level": "",
      "photo_url": null
    },
    {
      "place_id": "/g/1tfc7jpw",
      "name": "Phayul",
      "address": "37-65 74th St., Jackson Heights, NY 11372",
      "borough": "Queens",
      "lat": 40.7471859,
      "lng": -73.89135399999999,
      "maps_url": "https://maps.google.com/?cid=13014086701352329485",
      "rating": null,
      "reviews": null,
      "cuisine": "",
      "price_level": "",
      "photo_url": null
    },
    {
      "place_id": "/g/11bw4_dc8f",
      "name": "Jin Mei Dumpling",
      "address": "25B Henry St B, New York, NY 10002",
      "borough": "Manhattan",
      "lat": 40.7129498,
      "lng": -73.9965632,
      "maps_url": "https://maps.google.com/?cid=3103546129691892405",
      "rating": null,
      "reviews": null,
      "cuisine": "",
      "price_level": "",
      "photo_url": null
    },
    {
      "place_id": "/g/1q5d62b15",
      "name": "dawa's",
      "address": "51-18 Skillman Ave, Woodside, NY 11377",
      "borough": "Queens",
      "lat": 40.7458465,
      "lng": -73.91267669999999,
      "maps_url": "https://maps.google.com/?cid=7517233091438789806",
      "rating": null,
      "reviews": null,
      "cuisine": "",
      "price_level": "",
      "photo_url": null
    },
    {
      "place_id": "/g/11sc2lfrj7",
      "name": "禧悦會海鲜自助火锅 XI YUE HUI HOT POT",
      "address": "828 64th St, Brooklyn, NY 11220",
      "borough": "Brooklyn",
      "lat": 40.6325948,
      "lng": -74.0112831,
      "maps_url": "https://maps.google.com/?cid=3341764590683608405",
      "rating": null,
      "reviews": null,
      "cuisine": "",
      "price_level": "",
      "photo_url": null
    },
    {
      "place_id": "/g/11ckqs1hy1",
      "name": "Kopitiam",
      "address": "151 E Broadway, New York, NY 10002",
      "borough": "Manhattan",
      "lat": 40.7138432,
      "lng": -73.9909279,
      "maps_url": "https://maps.google.com/?cid=17644709177204286813",
      "rating": null,
      "reviews": null,
      "cuisine": "",
      "price_level": "",
      "photo_url": null
    },
    {
      "place_id": "/g/11fl9hppsz",
      "name": "King Dumplings",
      "address": "74 Hester St, New York, NY 10002",
      "borough": "Manhattan",
      "lat": 40.7159626,
      "lng": -73.9917091,
      "maps_url": "https://maps.google.com/?cid=2645857922456385045",
      "rating": null,
      "reviews": null,
      "cuisine": "",
      "price_level": "",
      "photo_url": null
    },
    {
      "place_id": "/g/11l8r9zbzy",
      "name": "Valla Table",
      "address": "641 10th Ave, New York, NY 10036",
      "borough": "Manhattan",
      "lat": 40.7619051,
      "lng": -73.9941576,
      "maps_url": "https://maps.google.com/?cid=9353436591797261160",
      "rating": null,
      "reviews": null,
      "cuisine": "",
      "price_level": "",
      "photo_url": null
    },
    {
      "place_id": "/g/11j7vjk0g4",
      "name": "Top Thai 55 Carmine",
      "address": "55 Carmine St, New York, NY 10014",
      "borough": "Manhattan",
      "lat": 40.7299486,
      "lng": -74.0042366,
      "maps_url": "https://maps.google.com/?cid=5693255988850879554",
      "rating": null,
      "reviews": null,
      "cuisine": "",
      "price_level": "",
      "photo_url": null
    },
    {
      "place_id": "/g/11vsk_k_sz",
      "name": "SUKH",
      "address": "723 Fulton St, Brooklyn, NY 11217",
      "borough": "Brooklyn",
      "lat": 40.6872542,
      "lng": -73.9763684,
      "maps_url": "https://maps.google.com/?cid=7234949183204858014",
      "rating": null,
      "reviews": null,
      "cuisine": "",
      "price_level": "",
      "photo_url": null
    },
    {
      "place_id": "/g/1tdkb_3m",
      "name": "Sunny & Annie's Deli",
      "address": "94 Avenue B, New York, NY 10009",
      "borough": "Manhattan",
      "lat": 40.7246421,
      "lng": -73.9817015,
      "maps_url": "https://maps.google.com/?cid=12142565185656968664",
      "rating": null,
      "reviews": null,
      "cuisine": "",
      "price_level": "",
      "photo_url": null
    },
    {
      "place_id": "/g/11y58dj2yz",
      "name": "KPOT Korean BBQ & Hot Pot",
      "address": "310 W 38th St, New York, NY 10018",
      "borough": "Manhattan",
      "lat": 40.7550035,
      "lng": -73.9925599,
      "maps_url": "https://maps.google.com/?cid=1581298398505801438",
      "rating": null,
      "reviews": null,
      "cuisine": "",
      "price_level": "",
      "photo_url": null
    },
    {
      "place_id": "/g/11tk7gptzc",
      "name": "OKDONGSIK New York",
      "address": "13 E 30th St 1st floor, New York, NY 10016",
      "borough": "Manhattan",
      "lat": 40.7456944,
      "lng": -73.9853743,
      "maps_url": "https://maps.google.com/?cid=2694044532931582031",
      "rating": null,
      "reviews": null,
      "cuisine": "",
      "price_level": "",
      "photo_url": null
    },
    {
      "place_id": "/g/11jzsng661",
      "name": "Elephant Ear",
      "address": "690 9th Ave, New York, NY 10036",
      "borough": "Manhattan",
      "lat": 40.7617652,
      "lng": -73.98982579999999,
      "maps_url": "https://maps.google.com/?cid=16303363267706011520",
      "rating": null,
      "reviews": null,
      "cuisine": "",
      "price_level": "",
      "photo_url": null
    },
    {
      "place_id": "/g/11y2p5yglf",
      "name": "Kanyakumari",
      "address": "20 E 17th St, New York, NY 10003",
      "borough": "Manhattan",
      "lat": 40.7373002,
      "lng": -73.9912272,
      "maps_url": "https://maps.google.com/?cid=12112289826523609363",
      "rating": null,
      "reviews": null,
      "cuisine": "",
      "price_level": "",
      "photo_url": null
    },
    {
      "place_id": "/g/1tjh08jz",
      "name": "Phở Hoài",
      "address": "8616 4th Ave, Brooklyn, NY 11209",
      "borough": "Brooklyn",
      "lat": 40.6224134,
      "lng": -74.0287211,
      "maps_url": "https://maps.google.com/?cid=5020359856039840555",
      "rating": null,
      "reviews": null,
      "cuisine": "",
      "price_level": "",
      "photo_url": null
    },
    {
      "place_id": "/g/11zjybjcv6",
      "name": "by Antidote",
      "address": "30 E 20th St, New York, NY 10003",
      "borough": "Manhattan",
      "lat": 40.7386914,
      "lng": -73.9888272,
      "maps_url": "https://maps.google.com/?cid=16288140769870354678",
      "rating": null,
      "reviews": null,
      "cuisine": "",
      "price_level": "",
      "photo_url": null
    },
    {
      "place_id": "/g/11tms6dk2p",
      "name": "Chalong Southern Thai",
      "address": "749 9th Ave, New York, NY 10019",
      "borough": "Manhattan",
      "lat": 40.763955599999996,
      "lng": -73.98899449999999,
      "maps_url": "https://maps.google.com/?cid=11029962795147954490",
      "rating": null,
      "reviews": null,
      "cuisine": "",
      "price_level": "",
      "photo_url": null
    },
    {
      "place_id": "/g/11lctftq8x",
      "name": "Din's Kitchen",
      "address": "5210 7th Ave, Brooklyn, NY 11220",
      "borough": "Brooklyn",
      "lat": 40.6411675,
      "lng": -74.00745909999999,
      "maps_url": "https://maps.google.com/?cid=263892191264774435",
      "rating": null,
      "reviews": null,
      "cuisine": "",
      "price_level": "",
      "photo_url": null
    },
    {
      "place_id": "/g/1tg6lgmk",
      "name": "Nyonya",
      "address": "199 Grand St, New York, NY 10013",
      "borough": "Manhattan",
      "lat": 40.7190568,
      "lng": -73.9969181,
      "maps_url": "https://maps.google.com/?cid=7688614298524263028",
      "rating": null,
      "reviews": null,
      "cuisine": "",
      "price_level": "",
      "photo_url": null
    },
    {
      "place_id": "/g/11pzqznnyw",
      "name": "ThongLor New York",
      "address": "789 9th Ave, New York, NY 10019",
      "borough": "Manhattan",
      "lat": 40.765194699999995,
      "lng": -73.9880301,
      "maps_url": "https://maps.google.com/?cid=9883048805027111116",
      "rating": null,
      "reviews": null,
      "cuisine": "",
      "price_level": "",
      "photo_url": null
    },
    {
      "place_id": "/g/11c1s8bylw",
      "name": "Chang Lai",
      "address": "55 Bayard St Store B, New York, NY 10013",
      "borough": "Manhattan",
      "lat": 40.715244999999996,
      "lng": -73.99762539999999,
      "maps_url": "https://maps.google.com/?cid=176678469288829494",
      "rating": null,
      "reviews": null,
      "cuisine": "",
      "price_level": "",
      "photo_url": null
    },
    {
      "place_id": "/g/1td59jk9",
      "name": "Laut",
      "address": "15 E 17th St, New York, NY 10003",
      "borough": "Manhattan",
      "lat": 40.7375632,
      "lng": -73.9911162,
      "maps_url": "https://maps.google.com/?cid=6751469154857413119",
      "rating": null,
      "reviews": null,
      "cuisine": "",
      "price_level": "",
      "photo_url": null
    },
    {
      "place_id": "/g/11y828zjp9",
      "name": "Dagg Thai Restaurant",
      "address": "10 E 39th St, New York, NY 10016",
      "borough": "Manhattan",
      "lat": 40.751160999999996,
      "lng": -73.981529,
      "maps_url": "https://maps.google.com/?cid=3575138296992544864",
      "rating": null,
      "reviews": null,
      "cuisine": "",
      "price_level": "",
      "photo_url": null
    },
    {
      "place_id": "/g/11tbbv9zl7",
      "name": "Mitr Thai Restaurant",
      "address": "37 W 46th St, New York, NY 10036",
      "borough": "Manhattan",
      "lat": 40.756876899999995,
      "lng": -73.9804147,
      "maps_url": "https://maps.google.com/?cid=4825010778528413527",
      "rating": null,
      "reviews": null,
      "cuisine": "",
      "price_level": "",
      "photo_url": null
    },
    {
      "place_id": "/g/11wncgncjj",
      "name": "Sky Pavilion 川雲涧",
      "address": "325 W 42nd St, New York, NY 10036",
      "borough": "Manhattan",
      "lat": 40.758007899999996,
      "lng": -73.9908394,
      "maps_url": "https://maps.google.com/?cid=6905804490179923353",
      "rating": null,
      "reviews": null,
      "cuisine": "",
      "price_level": "",
      "photo_url": null
    },
    {
      "place_id": "/g/11y78sz9bc",
      "name": "Mountain House Times Square",
      "address": "353 W 46th St, New York, NY 10036",
      "borough": "Manhattan",
      "lat": 40.7607064,
      "lng": -73.9898134,
      "maps_url": "https://maps.google.com/?cid=4458861076628309392",
      "rating": null,
      "reviews": null,
      "cuisine": "",
      "price_level": "",
      "photo_url": null
    },
    {
      "place_id": "/g/11tfhx9wxk",
      "name": "Khaosan",
      "address": "128 Montague St, Brooklyn, NY 11201",
      "borough": "Brooklyn",
      "lat": 40.6945863,
      "lng": -73.99428019999999,
      "maps_url": "https://maps.google.com/?cid=15663018469034549440",
      "rating": null,
      "reviews": null,
      "cuisine": "",
      "price_level": "",
      "photo_url": null
    },
    {
      "place_id": "fid:-8520148985387688067:1981675325619466234",
      "name": "Thai Villa",
      "address": "",
      "borough": "",
      "lat": 40.7390045,
      "lng": -73.9906704,
      "maps_url": "https://maps.google.com/?cid=1981675325619466234",
      "rating": null,
      "reviews": null,
      "cuisine": "",
      "price_level": "",
      "photo_url": null
    },
    {
      "place_id": "fid:-8520171677777976987:604576682705820070",
      "name": "King’s Kitchen",
      "address": "",
      "borough": "",
      "lat": 40.637071999999996,
      "lng": -74.01176579999999,
      "maps_url": "https://maps.google.com/?cid=604576682705820070",
      "rating": null,
      "reviews": null,
      "cuisine": "",
      "price_level": "",
      "photo_url": null
    },
    {
      "place_id": "fid:-8520147223196516205:4468576318034103098",
      "name": "Brooklyn Curry Project",
      "address": "",
      "borough": "",
      "lat": 40.6916571,
      "lng": -73.9851055,
      "maps_url": "https://maps.google.com/?cid=4468576318034103098",
      "rating": null,
      "reviews": null,
      "cuisine": "",
      "price_level": "",
      "photo_url": null
    },
    {
      "place_id": "fid:-8520142175486035413:5256530827107484323",
      "name": "Krob Kreung Krob Ros",
      "address": "",
      "borough": "",
      "lat": 40.7674557,
      "lng": -73.9181921,
      "maps_url": "https://maps.google.com/?cid=5256530827107484323",
      "rating": null,
      "reviews": null,
      "cuisine": "",
      "price_level": "",
      "photo_url": null
    },
    {
      "place_id": "fid:-8520142784586090697:6961866224525056862",
      "name": "Between the Bagel NY",
      "address": "",
      "borough": "",
      "lat": 40.7668301,
      "lng": -73.92072329999999,
      "maps_url": "https://maps.google.com/?cid=6961866224525056862",
      "rating": null,
      "reviews": null,
      "cuisine": "",
      "price_level": "",
      "photo_url": null
    },
    {
      "place_id": "fid:-8520148779572151441:-7873669670019687467",
      "name": "Yi Ji Shi Mo",
      "address": "",
      "borough": "",
      "lat": 40.718243799999996,
      "lng": -73.9958487,
      "maps_url": "https://maps.google.com/?cid=10573074403689864149",
      "rating": null,
      "reviews": null,
      "cuisine": "",
      "price_level": "",
      "photo_url": null
    },
    {
      "place_id": "fid:-8520147237137379637:6028038025621807519",
      "name": "DOSA ROYALE",
      "address": "",
      "borough": "",
      "lat": 40.6873059,
      "lng": -73.9759368,
      "maps_url": "https://maps.google.com/?cid=6028038025621807519",
      "rating": null,
      "reviews": null,
      "cuisine": "",
      "price_level": "",
      "photo_url": null
    },
    {
      "place_id": "fid:-8520171449837327979:-8687794747687161066",
      "name": "King's Kitchen",
      "address": "",
      "borough": "",
      "lat": 40.6394525,
      "lng": -74.0052655,
      "maps_url": "https://maps.google.com/?cid=9758949326022390550",
      "rating": null,
      "reviews": null,
      "cuisine": "",
      "price_level": "",
      "photo_url": null
    },
    {
      "place_id": "fid:-8520148421827723885:6895877569815510792",
      "name": "Noodle Village",
      "address": "",
      "borough": "",
      "lat": 40.7162485,
      "lng": -73.9980176,
      "maps_url": "https://maps.google.com/?cid=6895877569815510792",
      "rating": null,
      "reviews": null,
      "cuisine": "",
      "price_level": "",
      "photo_url": null
    },
    {
      "place_id": "fid:-8520147699446778631:-8636448502894362303",
      "name": "Parlay",
      "address": "",
      "borough": "",
      "lat": 40.6463286,
      "lng": -73.9984954,
      "maps_url": "https://maps.google.com/?cid=9810295570815189313",
      "rating": null,
      "reviews": null,
      "cuisine": "",
      "price_level": "",
      "photo_url": null
    },
    {
      "place_id": "fid:-8520142006560194235:-2995274034402022673",
      "name": "Nur Thai",
      "address": "",
      "borough": "",
      "lat": 40.759785099999995,
      "lng": -73.9269004,
      "maps_url": "https://maps.google.com/?cid=15451470039307528943",
      "rating": null,
      "reviews": null,
      "cuisine": "",
      "price_level": "",
      "photo_url": null
    },
    {
      "place_id": "fid:-8520171338932923803:3916670475123089414",
      "name": "East Harbor Seafood Palace",
      "address": "",
      "borough": "",
      "lat": 40.633537,
      "lng": -74.0143283,
      "maps_url": "https://maps.google.com/?cid=3916670475123089414",
      "rating": null,
      "reviews": null,
      "cuisine": "",
      "price_level": "",
      "photo_url": null
    },
    {
      "place_id": "fid:-8520149012301340329:7835604647526171354",
      "name": "Thursday Kitchen",
      "address": "",
      "borough": "",
      "lat": 40.727630999999995,
      "lng": -73.98376549999999,
      "maps_url": "https://maps.google.com/?cid=7835604647526171354",
      "rating": null,
      "reviews": null,
      "cuisine": "",
      "price_level": "",
      "photo_url": null
    },
    {
      "place_id": "fid:-8520171449457649163:-3988102081665017697",
      "name": "New Pacific Palace",
      "address": "",
      "borough": "",
      "lat": 40.6381685,
      "lng": -74.0061472,
      "maps_url": "https://maps.google.com/?cid=14458641992044533919",
      "rating": null,
      "reviews": null,
      "cuisine": "",
      "price_level": "",
      "photo_url": null
    },
    {
      "place_id": "fid:-8520149646562909463:7482195002754823411",
      "name": "SARAVANAA BHAVAN",
      "address": "",
      "borough": "",
      "lat": 40.741420999999995,
      "lng": -73.98307989999999,
      "maps_url": "https://maps.google.com/?cid=7482195002754823411",
      "rating": null,
      "reviews": null,
      "cuisine": "",
      "price_level": "",
      "photo_url": null
    }
  ]
}
