{
  "name": "Boba",
  "slug": "boba",
  "source_url": "https://maps.app.goo.gl/4WoMZ8Dnkw9k1TUK6",
  "list_id": "4EDQzL77O7_d2NFXQn0p4g",
  "updated_at": "2026-06-17T12:46:45+00:00",
  "places": [
    {
      "place_id": "/g/11w3xdw_93",
      "name": "Hey Yogurt",
      "address": "120 W 3rd St, New York, NY 10012",
      "borough": "Manhattan",
      "lat": 40.7304787,
      "lng": -74.0004325,
      "maps_url": "https://maps.google.com/?cid=14786349640864831127",
      "rating": null,
      "reviews": null,
      "cuisine": "",
      "price_level": "",
      "photo_url": null
    },
    {
      "place_id": "/g/11njxhf35c",
      "name": "NaiSnow Tea and Bakery Brooklyn 86th Street",
      "address": "2141 86th St, Brooklyn, NY 11214",
      "borough": "Brooklyn",
      "lat": 40.6029109,
      "lng": -73.9948252,
      "maps_url": "https://maps.google.com/?cid=12365149158640405102",
      "rating": null,
      "reviews": null,
      "cuisine": "",
      "price_level": "",
      "photo_url": null
    },
    {
      "place_id": "/g/11hztb0l6t",
      "name": "Sugar Miss tea&coffee",
      "address": "5309 7th Ave, Brooklyn, NY 11220",
      "borough": "Brooklyn",
      "lat": 40.640383,
      "lng": -74.00771,
      "maps_url": "https://maps.google.com/?cid=7726260644610154259",
      "rating": null,
      "reviews": null,
      "cuisine": "",
      "price_level": "",
      "photo_url": null
    },
    {
      "place_id": "/g/11jndvvb1p",
      "name": "Débutea Brooklyn",
      "address": "71 Smith St, Brooklyn, NY 11201",
      "borough": "Brooklyn",
      "lat": 40.6893282,
      "lng": -73.9884467,
      "maps_url": "https://maps.google.com/?cid=5332207610385009173",
      "rating": null,
      "reviews": null,
      "cuisine": "",
      "price_level": "",
      "photo_url": null
    },
    {
      "place_id": "/g/11x7j2fqzq",
      "name": "CHAYANN Tea",
      "address": "40-09 Prince St, Flushing, NY 11354",
      "borough": "Queens",
      "lat": 40.758579499999996,
      "lng": -73.8315301,
      "maps_url": "https://maps.google.com/?cid=11468252948683783766",
      "rating": null,
      "reviews": null,
      "cuisine": "",
      "price_level": "",
      "photo_url": null
    },
    {
      "place_id": "/g/11vyr4xzkt",
      "name": "Hong Cha 香茶",
      "address": "884 5th Ave Store B, Brooklyn, NY 11232",
      "borough": "Brooklyn",
      "lat": 40.6515187,
      "lng": -74.0038671,
      "maps_url": "https://maps.google.com/?cid=13636907757952309628",
      "rating": null,
      "reviews": null,
      "cuisine": "",
      "price_level": "",
      "photo_url": null
    },
    {
      "place_id": "/g/11ydqz5f8l",
      "name": "TP TEA 茶湯會 (Columbus Circle, NY)",
      "address": "330 W 58th St, New York, NY 10019",
      "borough": "Manhattan",
      "lat": 40.7679342,
      "lng": -73.98378799999999,
      "maps_url": "https://maps.google.com/?cid=3912455422793133871",
      "rating": null,
      "reviews": null,
      "cuisine": "",
      "price_level": "",
      "photo_url": null
    },
    {
      "place_id": "/g/11vwr1bljp",
      "name": "N25 Nitro Tea",
      "address": "27 St Marks Pl, New York, NY 10003",
      "borough": "Manhattan",
      "lat": 40.7291524,
      "lng": -73.9883571,
      "maps_url": "https://maps.google.com/?cid=4144131156482427843",
      "rating": null,
      "reviews": null,
      "cuisine": "",
      "price_level": "",
      "photo_url": null
    },
    {
      "place_id": "/g/11nbn8stwv",
      "name": "NaiSnow Tea and Bakery Grand Street",
      "address": "303 Grand St, New York, NY 10002",
      "borough": "Manhattan",
      "lat": 40.7172907,
      "lng": -73.9918519,
      "maps_url": "https://maps.google.com/?cid=3105195319333007523",
      "rating": null,
      "reviews": null,
      "cuisine": "",
      "price_level": "",
      "photo_url": null
    },
    {
      "place_id": "/g/11q29yq912",
      "name": "Miss Du's Tea Shop",
      "address": "33 Pell St, New York, NY 10013",
      "borough": "Manhattan",
      "lat": 40.7148976,
      "lng": -73.9986164,
      "maps_url": "https://maps.google.com/?cid=12425104640434305404",
      "rating": null,
      "reviews": null,
      "cuisine": "",
      "price_level": "",
      "photo_url": null
    },
    {
      "place_id": "/g/11yzb59033",
      "name": "Arteassan (Long Island City)",
      "address": "42-32 Crescent St, Long Island City, NY 11101",
      "borough": "Queens",
      "lat": 40.7498297,
      "lng": -73.9415612,
      "maps_url": "https://maps.google.com/?cid=12301048564978252244",
      "rating": null,
      "reviews": null,
      "cuisine": "",
      "price_level": "",
      "photo_url": null
    },
    {
      "place_id": "/g/11lds8ry3y",
      "name": "Not As Bitter",
      "address": "241 E 10th St, New York, NY 10003",
      "borough": "Manhattan",
      "lat": 40.7290535,
      "lng": -73.9848288,
      "maps_url": "https://maps.google.com/?cid=17952455523296215612",
      "rating": null,
      "reviews": null,
      "cuisine": "",
      "price_level": "",
      "photo_url": null
    },
    {
      "place_id": "/g/11cs5vzx_1",
      "name": "Happy Lemon",
      "address": "133-35 Roosevelt Ave, Flushing, NY 11354",
      "borough": "Queens",
      "lat": 40.7588037,
      "lng": -73.8331816,
      "maps_url": "https://maps.google.com/?cid=3227815051438186699",
      "rating": null,
      "reviews": null,
      "cuisine": "",
      "price_level": "",
      "photo_url": null
    },
    {
      "place_id": "/g/11zk8q86q9",
      "name": "NaiSnow Tea and Bakery Long Island City",
      "address": "27-53 Jackson Ave, Long Island City, NY 11101",
      "borough": "Queens",
      "lat": 40.7483779,
      "lng": -73.9394628,
      "maps_url": "https://maps.google.com/?cid=13361445015551960392",
      "rating": null,
      "reviews": null,
      "cuisine": "",
      "price_level": "",
      "photo_url": null
    },
    {
      "place_id": "/g/11y24ch4n4",
      "name": "TP TEA 茶湯會 (Flushing, NY)",
      "address": "36-41 Prince St, Flushing, NY 11354",
      "borough": "Queens",
      "lat": 40.7612509,
      "lng": -73.8327386,
      "maps_url": "https://maps.google.com/?cid=3462993240798293519",
      "rating": null,
      "reviews": null,
      "cuisine": "",
      "price_level": "",
      "photo_url": null
    },
    {
      "place_id": "/g/11fy4fjqjs",
      "name": "Yaya Tea Gramercy",
      "address": "284 3rd Ave, New York, NY 10010",
      "borough": "Manhattan",
      "lat": 40.738397,
      "lng": -73.983683,
      "maps_url": "https://maps.google.com/?cid=4010082186475487691",
      "rating": null,
      "reviews": null,
      "cuisine": "",
      "price_level": "",
      "photo_url": null
    },
    {
      "place_id": "/g/11rchgc89w",
      "name": "Xing Fu Tang St Marks",
      "address": "133 2nd Ave, New York, NY 10003",
      "borough": "Manhattan",
      "lat": 40.7288305,
      "lng": -73.98785029999999,
      "maps_url": "https://maps.google.com/?cid=10802212985819188999",
      "rating": null,
      "reviews": null,
      "cuisine": "",
      "price_level": "",
      "photo_url": null
    },
    {
      "place_id": "/g/11rgr3yd0l",
      "name": "Wanpo Tea Shop",
      "address": "37 E 8th St, New York, NY 10003",
      "borough": "Manhattan",
      "lat": 40.7314509,
      "lng": -73.9941884,
      "maps_url": "https://maps.google.com/?cid=2287454705952253258",
      "rating": null,
      "reviews": null,
      "cuisine": "",
      "price_level": "",
      "photo_url": null
    },
    {
      "place_id": "/g/11mx7t8383",
      "name": "FIFTYLAN UNION SQUARE",
      "address": "28 Union Sq E, New York, NY 10003",
      "borough": "Manhattan",
      "lat": 40.7357875,
      "lng": -73.9893854,
      "maps_url": "https://maps.google.com/?cid=15694092109637524772",
      "rating": null,
      "reviews": null,
      "cuisine": "",
      "price_level": "",
      "photo_url": null
    },
    {
      "place_id": "/g/11vxh11j83",
      "name": "Chicha San Chen",
      "address": "72-74 Bayard St, New York, NY 10013",
      "borough": "Manhattan",
      "lat": 40.7157282,
      "lng": -73.9982357,
      "maps_url": "https://maps.google.com/?cid=3108875949148599434",
      "rating": null,
      "reviews": null,
      "cuisine": "",
      "price_level": "",
      "photo_url": null
    },
    {
      "place_id": "/g/11ykfx4z25",
      "name": "TeaByDo",
      "address": "38-03 Main St, Flushing, NY 11354",
      "borough": "Queens",
      "lat": 40.7607813,
      "lng": -73.8305527,
      "maps_url": "https://maps.google.com/?cid=6692403699091316652",
      "rating": null,
      "reviews": null,
      "cuisine": "",
      "price_level": "",
      "photo_url": null
    },
    {
      "place_id": "/g/11w1lsqj0q",
      "name": "Chictea",
      "address": "7604 3rd Ave, Brooklyn, NY 11209",
      "borough": "Brooklyn",
      "lat": 40.6306657,
      "lng": -74.0282781,
      "maps_url": "https://maps.google.com/?cid=3764580138817845336",
      "rating": null,
      "reviews": null,
      "cuisine": "",
      "price_level": "",
      "photo_url": null
    },
    {
      "place_id": "/g/11x22hpqpc",
      "name": "HEYTEA",
      "address": "1565 Broadway, New York, NY 10036",
      "borough": "Manhattan",
      "lat": 40.7593173,
      "lng": -73.98539889999999,
      "maps_url": "https://maps.google.com/?cid=3545712803503246858",
      "rating": null,
      "reviews": null,
      "cuisine": "",
      "price_level": "",
      "photo_url": null
    },
    {
      "place_id": "fid:-8520148648822504863:8089351260994886347",
      "name": "Luckin Coffee",
      "address": "",
      "borough": "",
      "lat": 40.7646496,
      "lng": -73.9847727,
      "maps_url": "https://maps.google.com/?cid=8089351260994886347",
      "rating": null,
      "reviews": null,
      "cuisine": "",
      "price_level": "",
      "photo_url": null
    },
    {
      "place_id": "fid:-8520170580144726785:6471254525621069370",
      "name": "JOOY TEA SHOPPE (BROOKLYN 60ST)",
      "address": "",
      "borough": "",
      "lat": 40.6353849,
      "lng": -74.0098897,
      "maps_url": "https://maps.google.com/?cid=6471254525621069370",
      "rating": null,
      "reviews": null,
      "cuisine": "",
      "price_level": "",
      "photo_url": null
    },
    {
      "place_id": "fid:-8520148907291726647:-4493606057126408038",
      "name": "TEAPULSE - Koreatown",
      "address": "",
      "borough": "",
      "lat": 40.7472473,
      "lng": -73.9892967,
      "maps_url": "https://maps.google.com/?cid=13953138016583143578",
      "rating": null,
      "reviews": null,
      "cuisine": "",
      "price_level": "",
      "photo_url": null
    },
    {
      "place_id": "fid:-8520149294264563905:633514585678591363",
      "name": "Sweetea",
      "address": "",
      "borough": "",
      "lat": 40.7468177,
      "lng": -73.98304949999999,
      "maps_url": "https://maps.google.com/?cid=633514585678591363",
      "rating": null,
      "reviews": null,
      "cuisine": "",
      "price_level": "",
      "photo_url": null
    }
  ]
}
