{
  "name": "Boba",
  "slug": "boba",
  "source_url": "https://maps.app.goo.gl/4WoMZ8Dnkw9k1TUK6",
  "list_id": "4EDQzL77O7_d2NFXQn0p4g",
  "updated_at": "2026-04-30T00:53:04+00:00",
  "places": [
    {
      "place_id": "/g/11nbn8stwv",
      "name": "NaiSnow Tea and Bakery Grand Street",
      "address": "303 Grand St, New York, NY 10002",
      "lat": 40.7172907,
      "lng": -73.9918519,
      "maps_url": "https://maps.google.com/?cid=3105195319333007523",
      "rating": null,
      "reviews": null,
      "cuisine": "",
      "price_level": "",
      "photo_url": null
    },
    {
      "place_id": "/g/11q29yq912",
      "name": "Miss Du's Tea Shop",
      "address": "33 Pell St, New York, NY 10013",
      "lat": 40.7148968,
      "lng": -73.9986163,
      "maps_url": "https://maps.google.com/?cid=12425104640434305404",
      "rating": null,
      "reviews": null,
      "cuisine": "",
      "price_level": "",
      "photo_url": null
    },
    {
      "place_id": "/g/11yzb59033",
      "name": "Arteassan (Long Island City)",
      "address": "42-32 Crescent St, Long Island City, NY 11101",
      "lat": 40.7498297,
      "lng": -73.9415612,
      "maps_url": "https://maps.google.com/?cid=12301048564978252244",
      "rating": null,
      "reviews": null,
      "cuisine": "",
      "price_level": "",
      "photo_url": null
    },
    {
      "place_id": "/g/11lds8ry3y",
      "name": "Not As Bitter",
      "address": "241 E 10th St, New York, NY 10003",
      "lat": 40.7290535,
      "lng": -73.9848288,
      "maps_url": "https://maps.google.com/?cid=17952455523296215612",
      "rating": null,
      "reviews": null,
      "cuisine": "",
      "price_level": "",
      "photo_url": null
    },
    {
      "place_id": "/g/11cs5vzx_1",
      "name": "Happy Lemon",
      "address": "133-35 Roosevelt Ave, Flushing, NY 11354",
      "lat": 40.7588037,
      "lng": -73.8331816,
      "maps_url": "https://maps.google.com/?cid=3227815051438186699",
      "rating": null,
      "reviews": null,
      "cuisine": "",
      "price_level": "",
      "photo_url": null
    },
    {
      "place_id": "/g/11zk8q86q9",
      "name": "NaiSnow Tea and Bakery Long Island City",
      "address": "27-53 Jackson Ave, Long Island City, NY 11101",
      "lat": 40.7483779,
      "lng": -73.9394628,
      "maps_url": "https://maps.google.com/?cid=13361445015551960392",
      "rating": null,
      "reviews": null,
      "cuisine": "",
      "price_level": "",
      "photo_url": null
    },
    {
      "place_id": "/g/11y24ch4n4",
      "name": "TP TEA 茶湯會 (Flushing, NY)",
      "address": "36-41 Prince St, Flushing, NY 11354",
      "lat": 40.7612509,
      "lng": -73.8327386,
      "maps_url": "https://maps.google.com/?cid=3462993240798293519",
      "rating": null,
      "reviews": null,
      "cuisine": "",
      "price_level": "",
      "photo_url": null
    },
    {
      "place_id": "/g/11fy4fjqjs",
      "name": "Yaya Tea Gramercy",
      "address": "284 3rd Ave, New York, NY 10010",
      "lat": 40.738397,
      "lng": -73.983683,
      "maps_url": "https://maps.google.com/?cid=4010082186475487691",
      "rating": null,
      "reviews": null,
      "cuisine": "",
      "price_level": "",
      "photo_url": null
    },
    {
      "place_id": "/g/11rchgc89w",
      "name": "Xing Fu Tang St Marks",
      "address": "133 2nd Ave, New York, NY 10003",
      "lat": 40.7288036,
      "lng": -73.9878468,
      "maps_url": "https://maps.google.com/?cid=10802212985819188999",
      "rating": null,
      "reviews": null,
      "cuisine": "",
      "price_level": "",
      "photo_url": null
    },
    {
      "place_id": "/g/11rgr3yd0l",
      "name": "Wanpo Tea Shop",
      "address": "37 E 8th St, New York, NY 10003",
      "lat": 40.7314509,
      "lng": -73.9941884,
      "maps_url": "https://maps.google.com/?cid=2287454705952253258",
      "rating": null,
      "reviews": null,
      "cuisine": "",
      "price_level": "",
      "photo_url": null
    },
    {
      "place_id": "/g/11mx7t8383",
      "name": "FIFTYLAN UNION SQUARE",
      "address": "28 Union Sq E, New York, NY 10003",
      "lat": 40.7357875,
      "lng": -73.9893854,
      "maps_url": "https://maps.google.com/?cid=15694092109637524772",
      "rating": null,
      "reviews": null,
      "cuisine": "",
      "price_level": "",
      "photo_url": null
    },
    {
      "place_id": "/g/11vxh11j83",
      "name": "Chicha San Chen",
      "address": "72-74 Bayard St, New York, NY 10013",
      "lat": 40.7157282,
      "lng": -73.9982357,
      "maps_url": "https://maps.google.com/?cid=3108875949148599434",
      "rating": null,
      "reviews": null,
      "cuisine": "",
      "price_level": "",
      "photo_url": null
    },
    {
      "place_id": "/g/11ykfx4z25",
      "name": "TeaByDo",
      "address": "38-03 Main St, Flushing, NY 11354",
      "lat": 40.7607813,
      "lng": -73.8305527,
      "maps_url": "https://maps.google.com/?cid=6692403699091316652",
      "rating": null,
      "reviews": null,
      "cuisine": "",
      "price_level": "",
      "photo_url": null
    },
    {
      "place_id": "/g/11w1lsqj0q",
      "name": "Chictea",
      "address": "7604 3rd Ave, Brooklyn, NY 11209",
      "lat": 40.6306657,
      "lng": -74.0282781,
      "maps_url": "https://maps.google.com/?cid=3764580138817845336",
      "rating": null,
      "reviews": null,
      "cuisine": "",
      "price_level": "",
      "photo_url": null
    },
    {
      "place_id": "/g/11x22hpqpc",
      "name": "HEYTEA",
      "address": "1565 Broadway, New York, NY 10036",
      "lat": 40.7593173,
      "lng": -73.98539889999999,
      "maps_url": "https://maps.google.com/?cid=3545712803503246858",
      "rating": null,
      "reviews": null,
      "cuisine": "",
      "price_level": "",
      "photo_url": null
    },
    {
      "place_id": "fid:-8520148648822504863:8089351260994886347",
      "name": "Luckin Coffee",
      "address": "",
      "lat": 40.7646496,
      "lng": -73.9847727,
      "maps_url": "https://maps.google.com/?cid=8089351260994886347",
      "rating": null,
      "reviews": null,
      "cuisine": "",
      "price_level": "",
      "photo_url": null
    },
    {
      "place_id": "fid:-8520170580144726785:6471254525621069370",
      "name": "JOOY TEA SHOPPE (BROOKLYN 60ST)",
      "address": "",
      "lat": 40.6353849,
      "lng": -74.0098897,
      "maps_url": "https://maps.google.com/?cid=6471254525621069370",
      "rating": null,
      "reviews": null,
      "cuisine": "",
      "price_level": "",
      "photo_url": null
    },
    {
      "place_id": "fid:-8520148907291726647:-4493606057126408038",
      "name": "TEAPULSE - Koreatown",
      "address": "",
      "lat": 40.7472473,
      "lng": -73.9892967,
      "maps_url": "https://maps.google.com/?cid=13953138016583143578",
      "rating": null,
      "reviews": null,
      "cuisine": "",
      "price_level": "",
      "photo_url": null
    },
    {
      "place_id": "fid:-8520149294264563905:633514585678591363",
      "name": "Sweetea",
      "address": "",
      "lat": 40.7468177,
      "lng": -73.98304949999999,
      "maps_url": "https://maps.google.com/?cid=633514585678591363",
      "rating": null,
      "reviews": null,
      "cuisine": "",
      "price_level": "",
      "photo_url": null
    }
  ]
}
